[{"latitude":-34.624695,"longitude":-58.451614,"description":"Oportunidad!!! Los buffers andan perfectamente y suenan fuerte\uff0c en cuanto al aparato solo anda la radio. La casettera y el toca discos quiza pueda tener arreglo.","id":802670287,"image":"http:\/\/images02.olx-st.com\/ui\/65\/65\/07\/t_1431300496_802670287_1.jpg","price":"$1.500","title":"Tocador antiguo y buffers"},{"latitude":-34.624287,"longitude":-58.435696,"description":"Galaxy alta, libre de f\u00e1brica, pantalla de 4.7, memoria de 32gb, 2gb de Ram, c\u00e1mara de 13,4g lte dise\u00f1o nueva l\u00ednea met\u00e1lica, en caja sellada WhatsApp 1153265967 ofertas por WhatsApp, asesoren el precio por que es nuevo en el mercado","id":802783669,"image":"http:\/\/images01.olx-st.com\/ui\/95\/39\/33\/t_1431344755_802783669_1.jpg","price":"$7.800","title":"Nuevo Samsung Galaxy alpha"},{"latitude":-34.616333,"longitude":-58.43482,"description":"Impeclable estado monitor lcd Samsung 17 pulgadas Ofertaaa!!!!","id":802832597,"image":"http:\/\/images02.olx-st.com\/ui\/81\/08\/15\/t_1431360927_802832597_1.jpg","price":"$1.190","title":"Monitor lcd Samsung 17"},{"latitude":-34.615833,"longitude":-58.447872,"description":"Se vende zapatos con plataforma nuevos numero 38","id":802674974,"image":"http:\/\/images03.olx-st.com\/ui\/88\/61\/92\/t_1431303184_802674974_1.jpg","price":"$1.250","title":"Se Vende Zapatos Forever 21 Miami"},{"latitude":-34.559624,"longitude":-58.444767,"description":"Vendo Vairo xr 5.0 freno a disco equipada shimano altus 21 velocidades cuadro aluminio talle 20 ...1153889850","id":802814338,"image":"http:\/\/images04.olx-st.com\/ui\/82\/43\/20\/t_1431355948_802814338_1.jpg","price":"$5.800","title":"Vairo 5.0 freno a disco"},{"latitude":-34.5547,"longitude":-58.455196,"description":"Nuevo de marca primera calidad","id":802805645,"image":"http:\/\/images02.olx-st.com\/ui\/91\/74\/68\/t_1431353455_802805645_1.jpg","price":"$550","title":"Tapados para damas"},{"latitude":-34.55459,"longitude":-58.45534,"description":"Nuevo 3 uso primera calidad","id":802821526,"image":"http:\/\/images03.olx-st.com\/ui\/79\/07\/38\/t_1431357911_802821526_1.jpg","price":"$550","title":"Rolet en linia"},{"latitude":-34.55433,"longitude":-58.44598,"description":"Otro test de alaban","id":802857638,"image":"http:\/\/images02.olx-st.com\/ui\/53\/31\/32\/t_1431367731_802857638_1.jpg","price":"$123","title":"Test Alan mm"}]