[{"latitude":-34.649803,"longitude":-58.521557,"description":"Rueda de cobayo grande","id":802657657,"image":"http:\/\/images04.olx-st.com\/ui\/75\/56\/80\/t_1431293506_802657657_1.jpg","price":"$100","title":"Rueda de cobayo"},{"latitude":-34.644432,"longitude":-58.511097,"description":"Exelente cama antigua","id":802830826,"image":"http:\/\/images04.olx-st.com\/ui\/83\/00\/06\/t_1431360427_802830826_1.jpg","price":"$1.000","title":"2 Camas de 1 plaza"},{"latitude":-34.64429,"longitude":-58.521126,"description":"VENDO TV CROWN 21 PULGADAS SIN CONTROL PERO EN EXCELENTE ESTADO NI UNA MARCA,LA VENDO PORQUE NO LA USO Y NECESITO LA PLATA.","id":803200391,"image":"http:\/\/images03.olx-st.com\/ui\/55\/94\/87\/t_1431495089_803200391_1.jpg","price":"$750","title":"Vendo tv crown mustang 21 pulgadas excelente"},{"latitude":-34.64286,"longitude":-58.51601,"description":"Porta bebe de jean en excelente estado. Ajustables. Eleg\u00ed la que te guste m\u00e1s. Cada una 100 pesos","id":802893062,"image":"http:\/\/images04.olx-st.com\/ui\/74\/90\/16\/t_1431380844_802893062_1.jpg","price":"$100","title":"Sillita porta bebe"},{"latitude":-34.64282,"longitude":-58.515957,"description":"Campera de cuero, de hombre, impecable, 2 bolsillos internos, talle S de Cuarry. Interior en muy buen estado. Cuero original.","id":802893839,"image":"http:\/\/images04.olx-st.com\/ui\/78\/28\/72\/t_1431381087_802893839_1.jpg","price":"$1.000","title":"Campera de cuero verdadero"},{"latitude":-34.642807,"longitude":-58.515945,"description":"Pollera cintura con el\u00e1stico de modal y seda fr\u00eda.","id":802896213,"image":"http:\/\/images01.olx-st.com\/ui\/51\/74\/16\/t_1431381882_802896213_1.jpg","price":"$80","title":"Pollera sin uso"},{"latitude":-34.642784,"longitude":-58.515923,"description":"Jean de nena, talle 5, hasta 4 a\u00f1os aprox. Muy lindo en buen estado.","id":802897141,"image":"http:\/\/images03.olx-st.com\/ui\/74\/19\/22\/t_1431382199_802897141_1.jpg","price":"$100","title":"Jean de nena"},{"latitude":-34.63953,"longitude":-58.515812,"description":"Hermoso reloj unisex...impecable sin uso","id":803169585,"image":"http:\/\/images03.olx-st.com\/ui\/67\/61\/01\/t_1431486702_803169585_1.jpg","price":"$480","title":"Reloj ONA SAEZ unisex"},{"latitude":-34.63953,"longitude":-58.51578,"description":"Dale belleza y distinci\u00f3n a tus manos!! A domicilio.precios super accesibles. Desde $200","id":803192367,"image":"http:\/\/images04.olx-st.com\/ui\/69\/54\/99\/t_1431491654_803192367_1.jpg","price":"$200","title":"U\u00f1as esculpidas gelificadas o acr\u00edlico"},{"latitude":-34.638268,"longitude":-58.512997,"description":"Sapatillas ad\u00edas original talle 43 44 nuevo en caja","id":802852505,"image":"http:\/\/images02.olx-st.com\/ui\/68\/59\/07\/t_1431366281_802852505_1.jpg","price":"","title":"Sapatillas Adidas Original"},{"latitude":-34.63816,"longitude":-58.51334,"description":"Nuevo conjunto Adidas original muy lindo oferta 1.400","id":802849545,"image":"http:\/\/images04.olx-st.com\/ui\/58\/99\/45\/t_1431365497_802849545_1.jpg","price":"","title":"Conjunto Adidas ORIGINAL"},{"latitude":-34.622257,"longitude":-58.519844,"description":"Bicicleta para acrobacias VAIRO pr\u00e1cticamente nueva (la compr\u00e9 y la us\u00e9 dos d\u00edas nada m\u00e1s) no tiene golpes, las gomas son las originales, la pintura esta intacta, nunca fue reparada (porque no se necesit\u00f3) La venta se realizar\u00e1 en un restaurante en Monte Castro, Capital Federal. (Barrio cerca de Dev","id":800430028,"image":"http:\/\/images04.olx-st.com\/ui\/86\/59\/21\/t_1430444730_800430028_1.jpg","price":"$4.500","title":"BMX VAIRO"},{"latitude":-34.6222,"longitude":-58.523056,"description":"Samsung gear neo","id":799205041,"image":"http:\/\/images02.olx-st.com\/ui\/96\/64\/70\/t_1429960741_799205041_1.jpg","price":"$2.700","title":"Reloj smart"},{"latitude":-34.620697,"longitude":-58.52438,"description":"El traje tiene un solo uso, esta impecable.","id":793709769,"image":"http:\/\/images04.olx-st.com\/ui\/87\/00\/13\/t_1427820641_793709769_1.jpg","price":"$2.500","title":"Traje de Cristian lacroix con.corbata y pantal\u00f3n"},{"latitude":-34.619625,"longitude":-58.522583,"description":"Zapatos de cuero punta de acero EXCELENTE MARCA OMBU.","id":794840406,"image":"http:\/\/images02.olx-st.com\/ui\/62\/91\/24\/t_1428355604_794840406_1.jpg","price":"$550","title":"ZAPATOS DE SEGURIDAD OMBU N\u00b044 NUEVOS"},{"latitude":-34.619576,"longitude":-58.522614,"description":"De cuero con punta de acero KAMET para trabajar SEGURO","id":794841134,"image":"http:\/\/images04.olx-st.com\/ui\/74\/30\/73\/t_1428355862_794841134_1.jpg","price":"$550","title":"ZAPATOS de SEGURIDAD KAMET N\u00b044 NUEVOS"},{"latitude":-34.619576,"longitude":-58.52261,"description":"Traidos de E.E.U.U (un poquito ajado en una de las tiritas de abroche)=no se nota. x eso baje su precio","id":794839486,"image":"http:\/\/images03.olx-st.com\/ui\/86\/36\/31\/t_1428355294_794839486_1.jpg","price":"$1.000","title":"Tacos conPlataforma CRISTALINA NUEVOS N\u00b037\/38"},{"latitude":-34.61957,"longitude":-58.52261,"description":"Importados de E.E.U.U cuero tipo nobuk","id":794835557,"image":"http:\/\/images02.olx-st.com\/ui\/55\/03\/67\/t_1428353899_794835557_1.jpg","price":"$1.100","title":"TACONESconPLATAFORMA N\u00b041\/42 NUEVOS UNICOS EN EL MERCADO"},{"latitude":-34.619373,"longitude":-58.528618,"description":"Vendo Vento 2.5 modelo 2014 con llantas y papeles al d\u00eda.","id":803144660,"image":"http:\/\/images04.olx-st.com\/ui\/58\/80\/40\/t_1431475700_803144660_1.jpg","price":"$260.000","title":"Vento 2.5 mod. 14"},{"latitude":-34.6184,"longitude":-58.525272,"description":"Frabricamos Rejas,Puertas Rejas,Chapa,Protecci\u00f3n Balc\u00f3n, Cerramientos.Escaleras,Barandas, Parrillas,Campanas.","id":800419854,"image":"http:\/\/images02.olx-st.com\/ui\/87\/38\/01\/t_1430438578_800419854_1.jpg","price":"","title":"Herrer\u00eda integral"},{"latitude":-34.61839,"longitude":-58.52526,"description":"Tv 29 plano color","id":800772671,"image":"http:\/\/images03.olx-st.com\/ui\/57\/97\/76\/t_1430598620_800772671_1.jpg","price":"$1.500","title":"Tv.Ken Brown.29 plano"},{"latitude":-34.618164,"longitude":-58.523705,"description":"Vendo Depiladora el\u00e9ctrica sin uso, en casa. Con todos los accesorios y bolsa para guardarla, con instrucciones.","id":794457603,"image":"http:\/\/images04.olx-st.com\/ui\/75\/99\/15\/t_1428181181_794457603_1.jpg","price":"$500","title":"Depiladora el\u00e9ctrica"},{"latitude":-34.61686,"longitude":-58.528374,"description":"Armado y colocaci\u00f3n de todo tipo de redes","id":797475039,"image":"http:\/\/images01.olx-st.com\/ui\/98\/58\/36\/t_1429282830_797475039_1.jpg","price":"$250","title":"Armado y colocaci\u00f3n de redes"},{"latitude":-34.616238,"longitude":-58.527462,"description":"Te ayudamos armar tu presupuesto con la mejor calidad y precio","id":794161462,"image":"http:\/\/images03.olx-st.com\/ui\/92\/81\/72\/t_1428008534_794161462_1.jpg","price":"$10","title":"Redes deportivas y de contenci\u00f3n"},{"latitude":-34.616203,"longitude":-58.527374,"description":"Precio X mtrs cuadrado, seguridad para ni\u00f1os ,mascotas etc","id":797274938,"image":"http:\/\/images02.olx-st.com\/ui\/67\/65\/29\/t_1429201724_797274938_1.jpg","price":"$36","title":"Red para balcon"},{"latitude":-34.615517,"longitude":-58.528805,"description":"3 hermosos cachorros de caniches toy dos negros y uno apricot claro un negrito tiene las patitas y el cuello unas manchitas blancas se entregan a partir de fin de mes","id":794159876,"image":"http:\/\/images02.olx-st.com\/ui\/50\/72\/31\/t_1428007636_794159876_1.jpg","price":"$2.500","title":"Cachorros de caniches toy"},{"latitude":-34.615437,"longitude":-58.52667,"description":"Ancla para kayak con cadena muy c\u00f3moda","id":797656141,"image":"http:\/\/images04.olx-st.com\/ui\/71\/50\/51\/t_1429353153_797656141_1.jpg","price":"$219","title":"Ancla par kayak con cadena"},{"latitude":-34.6131,"longitude":-58.508648,"description":"talle M y L Consulte stock.","id":802904829,"image":"http:\/\/images02.olx-st.com\/ui\/54\/89\/12\/t_1431384891_802904829_1.jpg","price":"$175","title":"remeras nuevas marca FARENHATE"},{"latitude":-34.60451,"longitude":-58.5066,"description":"Ayudante de electricista o repositor para supemercado pero serio soi mui responsable enel horario tengo 30 a\u00f1os","id":802914440,"image":"http:\/\/images04.olx-st.com\/ui\/65\/91\/74\/t_1431388408_802914440_1.jpg","price":"","title":"Buscos trabajo x sona"},{"latitude":-34.60443,"longitude":-58.506477,"description":"En mui buen estado infomacion al whatsapp solo interesado x favor sin broma","id":803022854,"image":"http:\/\/images02.olx-st.com\/ui\/67\/76\/31\/t_1431435893_803022854_1.jpg","price":"$400","title":"Cochesito usado"},{"latitude":-34.604374,"longitude":-58.506496,"description":"En mui buen estado pero solo interesados x favor con todo los accesorios para mas info al whatsapp con la ce\u00f1ora carolina","id":803099680,"image":"http:\/\/images01.olx-st.com\/ui\/68\/80\/02\/t_1431459585_803099680_1.jpg","price":"$400","title":"Cochesito usado"},{"latitude":-34.596252,"longitude":-58.496708,"description":"Vendo todo vendo remato hola por motivo de viaje vendo todo lo que se ve en imagenes. Vendo todo. por viaje Hola sse vende todo.cada producto tiene precio solo contesto por watssap se manda fotos y precios por watssap.porfavor solo watssap y mensajes olx","id":802860822,"image":"http:\/\/images01.olx-st.com\/ui\/79\/18\/54\/t_1431368689_802860822_1.jpg","price":"$950","title":"Vendo todoo"},{"latitude":-34.596226,"longitude":-58.49678,"description":"vendo remato hola por motivo de viaje vendo todo lo que se ve en imagenes. Vendo todo. por viaje Hola sse vende todo.cada producto tiene precio solo contesto por watssap se manda fotos y precios por watssap.porfavor solo watssap y mensajes olx","id":802665257,"image":"http:\/\/images04.olx-st.com\/ui\/61\/33\/32\/t_1431297719_802665257_1.jpg","price":"$900","title":"vendo motivo viaje"},{"latitude":-34.59599,"longitude":-58.487434,"description":"Aviso con 48hs de anticipacion riquisimo!!","id":801763877,"image":"http:\/\/images04.olx-st.com\/ui\/87\/72\/75\/t_1431019802_801763877_1.jpg","price":"","title":"Torta de ricota"},{"latitude":-34.59322,"longitude":-58.491425,"description":"Es de una tienda exclusiva de Estados Unidos, Forever 21","id":801615704,"image":"","price":"$350","title":"Remera de corazom"},{"latitude":-34.592663,"longitude":-58.486168,"description":"Perfectas condiciones como nuevo","id":801615810,"image":"http:\/\/images02.olx-st.com\/ui\/56\/97\/63\/t_1430939013_801615810_1.jpg","price":"$2.800","title":"Samsung galaxy s3 mini"},{"latitude":-34.590984,"longitude":-58.47755,"description":"Conjunto de pollera. Musculosa con puntilla y cazadora Talle 4 Marca CHEEKY EXCELENTE ESTADO detalle de cinto con apliques","id":801289740,"image":"http:\/\/images01.olx-st.com\/ui\/84\/13\/87\/t_1430831245_801289740_1.jpg","price":"$150","title":"Hermoso conjunto cheeky talle 4"},{"latitude":-34.590942,"longitude":-58.477566,"description":"Talle 6\/8 4 buzos y 2 camperas","id":801086767,"image":"http:\/\/images03.olx-st.com\/ui\/68\/45\/28\/t_1430753825_801086767_1.jpg","price":"$50","title":"Lote de 6 buzos"},{"latitude":-34.59094,"longitude":-58.477566,"description":"Talles l y xl","id":801083984,"image":"http:\/\/images04.olx-st.com\/ui\/64\/78\/02\/t_1430753017_801083984_1.jpg","price":"$120","title":"Lote de 19 remeras de dama"},{"latitude":-34.59093,"longitude":-58.47755,"description":"Talle 32 buen estado","id":801070857,"image":"http:\/\/images01.olx-st.com\/ui\/92\/44\/07\/t_1430749217_801070857_1.jpg","price":"$40","title":"Zapatilla botita"},{"latitude":-34.59093,"longitude":-58.477547,"description":"Pollera talle 8 Jumper 6 Capri 4 Jean 6 Mini 6 Mini 6 Mini 12 Short 12","id":801094288,"image":"http:\/\/images03.olx-st.com\/ui\/98\/70\/94\/t_1430755909_801094288_1.jpg","price":"$100","title":"Lote de 8 prendas de jean de nena"},{"latitude":-34.59093,"longitude":-58.477535,"description":"Remera blanca con yabot De broderie Talle 4","id":801294461,"image":"http:\/\/images02.olx-st.com\/ui\/83\/95\/78\/t_1430832865_801294461_1.jpg","price":"$40","title":"Hermosa remera CHEEKY talle 4"},{"latitude":-34.59093,"longitude":-58.47749,"description":"Inpecable estado","id":803016570,"image":"http:\/\/images03.olx-st.com\/ui\/76\/49\/01\/t_1431433211_803016570_1.jpg","price":"$100","title":"Botas talle 34"},{"latitude":-34.590927,"longitude":-58.477516,"description":"Pantalon naranja floreado con polera y gorro de jean","id":801313641,"image":"http:\/\/images01.olx-st.com\/ui\/67\/20\/91\/t_1430838640_801313641_1.jpg","price":"$100","title":"Conjunto cheeky 2 a\u00f1os"},{"latitude":-34.59092,"longitude":-58.477573,"description":"140x70 75 de altura","id":800969103,"image":"http:\/\/images01.olx-st.com\/ui\/84\/81\/25\/t_1430702418_800969103_1.jpg","price":"$300","title":"Mesa escritorio con patas metalicas"},{"latitude":-34.59092,"longitude":-58.4775,"description":"Botas negras cortas talle 34","id":800958914,"image":"http:\/\/images04.olx-st.com\/ui\/77\/84\/95\/t_1430697441_800958914_1.jpg","price":"$100","title":"Botas talle 34"},{"latitude":-34.59092,"longitude":-58.477497,"description":"Talle 31 buen estado","id":801050533,"image":"http:\/\/images03.olx-st.com\/ui\/72\/09\/83\/t_1430741852_801050533_1.jpg","price":"$50","title":"Botitas de gamuza color coco con detalles en rosa"},{"latitude":-34.590916,"longitude":-58.4775,"description":"Talle 6 color rosa super abrigadito","id":801540907,"image":"http:\/\/images01.olx-st.com\/ui\/72\/18\/75\/t_1430915661_801540907_1.jpg","price":"$70","title":"Hermoso camperon de abrigo"},{"latitude":-34.590916,"longitude":-58.477474,"description":"Talles 16\/17\/18","id":801074697,"image":"http:\/\/images01.olx-st.com\/ui\/91\/62\/23\/t_1430750390_801074697_1.jpg","price":"$60","title":"Lote de 4 pares de calzado para bebes"},{"latitude":-34.59091,"longitude":-58.477566,"description":"Talle 4 color rosa impecable","id":801540457,"image":"http:\/\/images03.olx-st.com\/ui\/78\/87\/55\/t_1430915445_801540457_1.jpg","price":"$70","title":"Hermoso blaizer de corderoy"},{"latitude":-34.590908,"longitude":-58.47753,"description":"Talle 4 impecable Bordada Super abrigada","id":801548162,"image":"http:\/\/images04.olx-st.com\/ui\/51\/03\/38\/t_1430918579_801548162_1.jpg","price":"$300","title":"Campera importada eurodisney"},{"latitude":-34.590904,"longitude":-58.477448,"description":"Ni\u00f1os talles 4\/6\/8","id":802673790,"image":"http:\/\/images04.olx-st.com\/ui\/84\/92\/16\/t_1431302509_802673790_1.jpg","price":"$50","title":"Lote de buzos y camperas"},{"latitude":-34.5909,"longitude":-58.477486,"description":"Buen estado","id":800965408,"image":"http:\/\/images02.olx-st.com\/ui\/53\/68\/54\/t_1430700601_800965408_1.jpg","price":"$40","title":"Botas de lona talle 32"},{"latitude":-34.590897,"longitude":-58.4775,"description":"Zapatillas talle 34 Se retira por villa urquiza","id":800964724,"image":"http:\/\/images02.olx-st.com\/ui\/93\/27\/11\/t_1430700286_800964724_1.jpg","price":"$30","title":"Zapatillas talle 34"},{"latitude":-34.590897,"longitude":-58.477455,"description":"Hermosa camisa blanca con detalle de flores bordadas en hilo de seda Gran lazo en la espalda con faldon","id":801306179,"image":"http:\/\/images01.olx-st.com\/ui\/55\/76\/40\/t_1430836502_801306179_1.jpg","price":"$40","title":"Camisa cheeky talle 6"},{"latitude":-34.590893,"longitude":-58.477425,"description":"Talle 31 buen estado","id":801049496,"image":"http:\/\/images02.olx-st.com\/ui\/74\/49\/24\/t_1430741365_801049496_1.jpg","price":"$40","title":"Zapatillas botitas blancas con lenyejuelas"},{"latitude":-34.59089,"longitude":-58.47751,"description":"Oferton 4 prendas a solo 80 $ talles 12 y 14","id":800872839,"image":"http:\/\/images01.olx-st.com\/ui\/96\/85\/18\/t_1430656848_800872839_1.jpg","price":"$80","title":"Lote de dos chalecos de violeta y dos buzos de polar"},{"latitude":-34.59088,"longitude":-58.477493,"description":"Talle 4\/6 para nenas","id":801108884,"image":"http:\/\/images04.olx-st.com\/ui\/90\/83\/74\/t_1430759907_801108884_1.jpg","price":"$200","title":"Lote de 27 prendas para nenas"},{"latitude":-34.590878,"longitude":-58.477486,"description":"Talle 6 y 8 oportunidad $40 cada una","id":802922476,"image":"http:\/\/images01.olx-st.com\/ui\/89\/84\/56\/t_1431391529_802922476_1.jpg","price":"$40","title":"Camisas cheeky"},{"latitude":-34.590874,"longitude":-58.477497,"description":"Talle 8\/10","id":801090490,"image":"http:\/\/images02.olx-st.com\/ui\/98\/52\/55\/t_1430754834_801090490_1.jpg","price":"$50","title":"Lote de 5 chalecos tejidos a mano"},{"latitude":-34.590866,"longitude":-58.47753,"description":"Talle 4 color rosa","id":801545738,"image":"http:\/\/images03.olx-st.com\/ui\/60\/40\/92\/t_1430917693_801545738_1.jpg","price":"$40","title":"Camperita de lana tejida a mano"},{"latitude":-34.590866,"longitude":-58.477497,"description":"Buen estado","id":800968516,"image":"http:\/\/images04.olx-st.com\/ui\/91\/43\/70\/t_1430702130_800968516_1.jpg","price":"$40","title":"Botas de lona roja talle 32"},{"latitude":-34.590866,"longitude":-58.477425,"description":"Juego de resortes corsa wagon original","id":803028767,"image":"http:\/\/images03.olx-st.com\/ui\/78\/60\/98\/t_1431438055_803028767_1.jpg","price":"$300","title":"Resorte suspencion trasero corsa wagon"},{"latitude":-34.59085,"longitude":-58.477425,"description":"Talle6\/8 son 4 prendas","id":801767210,"image":"http:\/\/images02.olx-st.com\/ui\/60\/44\/58\/t_1431020480_801767210_1.jpg","price":"$80","title":"Lote de buzos y chalecos de polar"},{"latitude":-34.590847,"longitude":-58.477436,"description":"Campera de modal negra con cierre fluo","id":799133009,"image":"http:\/\/images04.olx-st.com\/ui\/64\/26\/67\/t_1429924503_799133009_1.jpg","price":"$50","title":"Campera de modal talle12"},{"latitude":-34.590847,"longitude":-58.477367,"description":"Talle 33 Esclabas negras Chatitas doradas con gliter","id":801814455,"image":"http:\/\/images04.olx-st.com\/ui\/78\/96\/08\/t_1431034005_801814455_1.jpg","price":"$70","title":"Lote de calzado para nenas"},{"latitude":-34.590843,"longitude":-58.477505,"description":"Talle 31 buen estado","id":801068972,"image":"http:\/\/images02.olx-st.com\/ui\/67\/38\/47\/t_1430748654_801068972_1.jpg","price":"$50","title":"Botita de gamuza color coco"},{"latitude":-34.590843,"longitude":-58.47747,"description":"1 mono de jean 3 pantalones 2 pantalones 47st 2polleras 1blaizer negro 1 vestido etam 1 campera 1buzo 1remera manga larga 1sweter de lana 2sweter de hilo Todo por 150","id":801774663,"image":"http:\/\/images01.olx-st.com\/ui\/78\/24\/71\/t_1431022029_801774663_1.jpg","price":"$150","title":"Lote de 16 prendas de mujer"},{"latitude":-34.59084,"longitude":-58.477455,"description":"Talles 6\/8 sin uso","id":802843971,"image":"http:\/\/images02.olx-st.com\/ui\/89\/79\/00\/t_1431363987_802843971_1.jpg","price":"$200","title":"Lote de 13 prendas nuevas"},{"latitude":-34.59084,"longitude":-58.47743,"description":"Talle 6\/8 color rosa","id":801765429,"image":"http:\/\/images04.olx-st.com\/ui\/59\/32\/79\/t_1431020019_801765429_1.jpg","price":"$70","title":"Camperon para nena"},{"latitude":-34.59084,"longitude":-58.47742,"description":"Talle 4 excelente estado","id":803029098,"image":"http:\/\/images01.olx-st.com\/ui\/79\/83\/38\/t_1431438173_803029098_1.jpg","price":"$70","title":"Hermoso blaizer de corderoy rosa"},{"latitude":-34.590828,"longitude":-58.477448,"description":"Talle 10 super abrigada","id":801541508,"image":"http:\/\/images04.olx-st.com\/ui\/89\/57\/35\/t_1430915916_801541508_1.jpg","price":"$70","title":"Campera de abrigo verde militar"},{"latitude":-34.59082,"longitude":-58.47746,"description":"Talle 6\/8 impecables","id":802890930,"image":"http:\/\/images04.olx-st.com\/ui\/85\/64\/56\/t_1431380162_802890930_1.jpg","price":"$50","title":"Lote de 5 chalecos tejidos a mano"},{"latitude":-34.5908,"longitude":-58.47737,"description":"Talles 16\/17\/18","id":801395461,"image":"http:\/\/images04.olx-st.com\/ui\/57\/06\/13\/t_1430863866_801395461_1.jpg","price":"$60","title":"Lote de calzado para bebe"},{"latitude":-34.590687,"longitude":-58.47745,"description":"Talles 4\/6\/8 1 campera de jean 1 camisa de jean 3 pantalones de jean 4 bombachas de campo","id":801098606,"image":"http:\/\/images03.olx-st.com\/ui\/81\/05\/61\/t_1430757076_801098606_1.jpg","price":"$120","title":"Lote de 9 prendas para nene"},{"latitude":-34.59063,"longitude":-58.487175,"description":"3 raquetas SUFLIX + 1 WILSON BLADE + bolso US OPEN","id":801770777,"image":"http:\/\/images02.olx-st.com\/ui\/87\/64\/81\/t_1431020998_801770777_1.jpg","price":"$1.700","title":"Raquetas De Tenis"},{"latitude":-34.586372,"longitude":-58.483055,"description":"Vendo impresora multifuncion Epson xp 201 con wifi, escanea, imprime y saca fotocopias. Funciona perfecto","id":802919239,"image":"http:\/\/images03.olx-st.com\/ui\/80\/90\/69\/t_1431390258_802919239_1.jpg","price":"$1.000","title":"Impresora multifuncion Epson"},{"latitude":-34.586136,"longitude":-58.47418,"description":"Marca crocs Me lo trajeron de afuera y me quedaron grandes No tiene ning\u00fan uso, est\u00e1n s\u00faper nuevas Con etiqueta y todo Wp 1166222393 Solo por capital","id":802342419,"image":"http:\/\/images03.olx-st.com\/ui\/81\/96\/29\/t_1431131481_802342419_1.jpg","price":"$600","title":"Crocs Retro Clog Talle 44 Negro"},{"latitude":-34.585648,"longitude":-58.467182,"description":"Mesa redonda de algarrobo, detalle patas torneadas, excelente estado","id":803299572,"image":"http:\/\/images01.olx-st.com\/ui\/59\/60\/30\/t_1431520323_803299572_1.jpg","price":"$1.800","title":"Vendo mesa algarrobo"},{"latitude":-34.585503,"longitude":-58.467136,"description":"Reja forjada de 2,10cm De alto x 80cm de ancho ideal decoracion","id":802796598,"image":"http:\/\/images04.olx-st.com\/ui\/56\/54\/34\/t_1431350552_802796598_1.jpg","price":"$1.600","title":"Reja forjada hierro macizo"},{"latitude":-34.584446,"longitude":-58.46869,"description":"Escape con curva trapp","id":802609415,"image":"http:\/\/images02.olx-st.com\/ui\/52\/98\/37\/t_1431267511_802609415_1.jpg","price":"$600","title":"Super trapp xr 600 o 250"},{"latitude":-34.584435,"longitude":-58.468662,"description":"Multiple admision original pelado","id":802609036,"image":"http:\/\/images04.olx-st.com\/ui\/52\/71\/95\/t_1431267267_802609036_1.jpg","price":"$1.000","title":"Multiple de admision suzuki swift gti"},{"latitude":-34.584404,"longitude":-58.468586,"description":"Pistones originales usados","id":802611547,"image":"http:\/\/images02.olx-st.com\/ui\/80\/26\/80\/t_1431268697_802611547_1.jpg","price":"$1.000","title":"Pistones suzuki swift gti"},{"latitude":-34.58413,"longitude":-58.47495,"description":"Hola !!! Vendo mi Iphone 4S de 16 giga blanco. Est\u00e9ticamente esta en perfecto estado, siempre lo cuide mucho. El telefono es comprado en Francia. Lo \u00fanico que falla un poquito es la durabilidad de la bater\u00eda ( como cualquier producto usado ). Mandarme un mensaje para m\u00e1s info.","id":795229720,"image":"http:\/\/images03.olx-st.com\/ui\/67\/51\/64\/t_1428499697_795229720_1.jpg","price":"$4.000","title":"Iphone 4s 16 giga white liberado"},{"latitude":-34.58322,"longitude":-58.474392,"description":"La moto funciona 10 puntos mec\u00e1nica impecable bater\u00eda nueva tiene algunas cosas de est\u00e9tica nada grave papeles lista para transferir modelo 2009 permutar\u00eda por otra moto (enduro o calle) escucho ofertas. 155332-0574","id":800953092,"image":"http:\/\/images01.olx-st.com\/ui\/98\/19\/84\/t_1430694521_800953092_1.jpg","price":"$10.000","title":"Zanella patagonia 150 cc excelente mecanica"},{"latitude":-34.58319,"longitude":-58.473866,"description":"Permuto por celular con 4g ofrezcan necesito libre o personal hablen al whatsap sin importar horario entrego en caja completo","id":797911680,"image":"http:\/\/images01.olx-st.com\/ui\/83\/66\/81\/t_1429495466_797911680_1.jpg","price":"$3.600","title":"Moto g 4g lte libre de fabrica"},{"latitude":-34.583187,"longitude":-58.473873,"description":"Moto g LTE con 4g libre de fabrica impecable mas un samsung fame con flash liberado cambio los dos por uno mejor busco LG o samsung escucho ofertas por whatsap","id":797679129,"image":"http:\/\/images03.olx-st.com\/ui\/68\/26\/59\/t_1429368858_797679129_1.jpg","price":"$5.000","title":"Permuto dos por uno"},{"latitude":-34.58313,"longitude":-58.48059,"description":"Bitas rolling numero 37 placha italiana varient ruedas rolline gioto casi nuevos con pocos meses de uso","id":797679891,"image":"http:\/\/images02.olx-st.com\/ui\/93\/73\/26\/t_1429369182_797679891_1.jpg","price":"$5.000","title":"Patines artisticos profecionales"},{"latitude":-34.582966,"longitude":-58.477863,"description":"es lo mas piol","id":802512489,"image":"http:\/\/images03.olx-st.com\/ui\/58\/31\/22\/t_1431202735_802512489_1.jpg","price":"$5.000","title":"cama boxeadora"},{"latitude":-34.58216,"longitude":-58.480812,"description":"Huawei Y210 para Personal muy poco uso estado implecable","id":796737924,"image":"http:\/\/images04.olx-st.com\/ui\/67\/36\/11\/t_1429030259_796737924_1.jpg","price":"$1.100","title":"huawei ascend Y210"},{"latitude":-34.582153,"longitude":-58.480766,"description":"color roja con 1700km a\u00f1o 2014 estado bueno le falta la cacha del lado derecho me cai y se rompio","id":796717823,"image":"http:\/\/images04.olx-st.com\/ui\/77\/89\/18\/t_1429024252_796717823_1.jpg","price":"$11.000","title":"brava electra 150"},{"latitude":-34.580944,"longitude":-58.466217,"description":"Amortiguadores en perfecto estado, quer\u00eda bajar m\u00e1s el auto y mande a trabajar la suspension, me los cambiaron por unos regulables y por eso los saque. Pido 500 por cada uno","id":801593771,"image":"http:\/\/images02.olx-st.com\/ui\/73\/76\/54\/t_1430931935_801593771_1.jpg","price":"$500","title":"Amortiguadores v\u00e1stago corto jorsa gol g3g4"},{"latitude":-34.5809,"longitude":-58.466206,"description":"Tuve un choque y me doblaron la mangueta izquierda, y por mercado libre me vendieron las 2 juntas, use la izquierda que necesitaba y esta me qued\u00f3. Escucho ofertas.","id":801589914,"image":"http:\/\/images02.olx-st.com\/ui\/69\/44\/45\/t_1430930845_801589914_1.jpg","price":"$4.000","title":"Mangueta derecha gol g3g4"},{"latitude":-34.5809,"longitude":-58.466194,"description":"Vendo espirales delanteros progresivos car para gol g3-g4. Me bajo el auto 4 dedos pero lo quer\u00eda m\u00e1s bajo por eso los saque, est\u00e1n en perfecto estado. Pido 500 por cada uno.","id":801595669,"image":"http:\/\/images02.olx-st.com\/ui\/98\/88\/13\/t_1430932494_801595669_1.jpg","price":"$500","title":"Espirales progresivos gol g3g4"},{"latitude":-34.580853,"longitude":-58.466175,"description":"La barra es para poner en el marco de la puerta, es extensible con topes de goma. Yo peso 90 y me soporta sin problemas. La vendo por que no la uso.","id":801600130,"image":"http:\/\/images01.olx-st.com\/ui\/96\/53\/79\/t_1430933779_801600130_1.jpg","price":"$150","title":"Barra para puerta extensible"},{"latitude":-34.580822,"longitude":-58.46612,"description":"Vendo los amortiguadores con poco uso, los tenia en mi auto pero los cambie por unos de v\u00e1stago corto y me quedaron guardados. Pido 700 por los dos.","id":801591156,"image":"http:\/\/images04.olx-st.com\/ui\/84\/17\/13\/t_1430931201_801591156_1.jpg","price":"$700","title":"Amortiguadores corven gol g3g4"},{"latitude":-34.580776,"longitude":-58.466106,"description":"Compre los botines a fines del a\u00f1o pasado, jugu\u00e9 2 partidos y tenia la idea de meterme en un torneo este a\u00f1o pero me mude y quedo todo en la nada. Est\u00e1n como nuevos","id":801599524,"image":"http:\/\/images03.olx-st.com\/ui\/78\/14\/66\/t_1430933606_801599524_1.jpg","price":"$400","title":"Botines topper talle 4344"},{"latitude":-34.579906,"longitude":-58.46484,"description":"Edici\u00f3n de video y\/o audio. Efectos, transiciones, musicalizacion","id":802646807,"image":"http:\/\/images03.olx-st.com\/ui\/57\/92\/69\/t_1431287062_802646807_1.jpg","price":"$1.550","title":"MIXER DE AUDIO Y VIDEO"},{"latitude":-34.5799,"longitude":-58.471,"description":"Esta nuevo en caja. talle 29.","id":800370171,"image":"http:\/\/images02.olx-st.com\/ui\/55\/53\/68\/t_1430416878_800370171_1.jpg","price":"$230","title":"Chatitas advanced Nena."},{"latitude":-34.57884,"longitude":-58.469116,"description":"Vendo esterilizador de chupetes y tetinas sin uso.","id":802878772,"image":"http:\/\/images03.olx-st.com\/ui\/82\/82\/91\/t_1431374481_802878772_1.jpg","price":"$80","title":"Esterilizador de chupetes y tetinas"},{"latitude":-34.577488,"longitude":-58.47133,"description":"bicicleta para ni\u00f1os","id":799496149,"image":"","price":"$500","title":"bicicleta celeste"},{"latitude":-34.577477,"longitude":-58.471397,"description":"petroleo everywhere","id":799507484,"image":"","price":"$0","title":"teereno d mil hectars"},{"latitude":-34.570286,"longitude":-58.453598,"description":"Muy buen estado general","id":803089950,"image":"http:\/\/images04.olx-st.com\/ui\/79\/74\/61\/t_1431456010_803089950_1.jpg","price":"$90.000","title":"Coupe Torino zx 1980"},{"latitude":-34.567585,"longitude":-58.46179,"description":"PlayStation 3 tra\u00edda de eeuu (es multivoltaje, no necesita adaptador) + 2 controles con un cargador. (Tambi\u00e9n tengo la playmove, si hay inter\u00e9s precio a convenir)","id":803105473,"image":"http:\/\/images03.olx-st.com\/ui\/61\/35\/18\/t_1431461487_803105473_1.jpg","price":"$3.500","title":"PlayStation 3 usada 2 Controles"},{"latitude":-34.56579,"longitude":-58.449482,"description":"Play 3 con poco uso, con todos los accesorios y los joysticks mas garant\u00eda de 3 meses","id":803085141,"image":"","price":"$4.500","title":"Play Station 3 250gb Con Garant\u00eda"},{"latitude":-34.56502,"longitude":-58.45107,"description":"Set de 6 tazas y platos para te en caja, nuevo, son uso!!!!","id":803055364,"image":"http:\/\/images01.olx-st.com\/ui\/63\/71\/01\/t_1431445777_803055364_1.jpg","price":"$350","title":"Set De 6 Tazas Y Platos De Te"},{"latitude":-34.564873,"longitude":-58.45137,"description":"Freidora Yelmo Completa, Nueva funciona perfectamente","id":803156499,"image":"http:\/\/images02.olx-st.com\/ui\/83\/95\/19\/t_1431480759_803156499_1.jpg","price":"$650","title":"Freidora Yelmo, Nueva!!!!"},{"latitude":-34.564648,"longitude":-58.45517,"description":"medidas 1.80 x 60 x 2.5 de espesor","id":803130885,"image":"http:\/\/images03.olx-st.com\/ui\/72\/36\/59\/t_1431470271_803130885_1.jpg","price":"$1.800","title":"Mesa \/ escritorio de madera y melamina"},{"latitude":-34.56463,"longitude":-58.45283,"description":"Volante Logitech Driving Force GT completo, perfecto estado de funcionamiento y est\u00e9tico, como al comprarlo. Usado por un cuidadoso obsesivo... siempre con medias para no da\u00f1ar los pedales (que igual se bancan cualquier cosa). Est\u00e1 completo, con fuente 220v, tengo la caja guardada, no hubo que hacer","id":803196151,"image":"http:\/\/images04.olx-st.com\/ui\/92\/87\/33\/t_1431493984_803196151_1.jpg","price":"$1.900","title":"Logitech Driving Force Gt Dfgt Volante Simulador"},{"latitude":-34.562756,"longitude":-58.443604,"description":"Impecable muy cuidado Sin rayitas siempre en protector!! Para cualquier compa\u00f1ia NO PERMUTO","id":803113822,"image":"http:\/\/images03.olx-st.com\/ui\/90\/18\/70\/t_1431464446_803113822_1.jpg","price":"$5.200","title":"Iphone 4S 64 GB Liberado De Apple"},{"latitude":-34.562546,"longitude":-58.44882,"description":"Vendo iPhone 4 con sus accesorios En excelente estado, anda muy bien.","id":803141220,"image":"http:\/\/images04.olx-st.com\/ui\/75\/58\/43\/t_1431474234_803141220_1.jpg","price":"$4.000","title":"Vendo iPhone 4"},{"latitude":-34.560383,"longitude":-58.460873,"description":"impecable con todos sus accesorios","id":803149331,"image":"http:\/\/images02.olx-st.com\/ui\/99\/41\/13\/t_1431477648_803149331_1.jpg","price":"$5.900","title":"Sony Z1 para Personal 64 Gb En Caja"},{"latitude":-34.559673,"longitude":-58.454334,"description":"Ambas cosas est\u00e1n sin uso","id":803150269,"image":"http:\/\/images04.olx-st.com\/ui\/91\/29\/04\/t_1431478045_803150269_1.jpg","price":"$2.000","title":"Cuatro tasas 13 nuevas Renault Clio y cricket tijera original Renault"},{"latitude":-34.551857,"longitude":-58.44352,"description":"Viene con 2 controles y sus respectivos nunchuks y variedad de juegos","id":803132647,"image":"http:\/\/images04.olx-st.com\/ui\/70\/46\/19\/t_1431470946_803132647_1.jpg","price":"$1.200","title":"Wii usada chipeada, excelente estado!"}]