[{"latitude":-34.644432,"longitude":-58.511097,"description":"Exelente cama antigua","id":802830826,"image":"http:\/\/images04.olx-st.com\/ui\/83\/00\/06\/t_1431360427_802830826_1.jpg","price":"$1.000","title":"2 Camas de 1 plaza"},{"latitude":-34.64423,"longitude":-58.52118,"description":"Vendo tv crown 21 pulgadas excelente estado no tengo el control,pero esta en excelente estado el televisor. Oferta.","id":802668428,"image":"http:\/\/images03.olx-st.com\/ui\/82\/38\/83\/t_1431299497_802668428_1.jpg","price":"$800","title":"VENDO TV CROWN 21 PULGADAS EXCELENTE"},{"latitude":-34.643085,"longitude":-58.526104,"description":"Dos camas de una plaza de cedro, muy buena madera, resistente. En muy buen estado solo con algunos detalles de pintura. Excelentes el\u00e1sticos. Se retiran por barrio de Liniers, CABA","id":802633005,"image":"http:\/\/images01.olx-st.com\/ui\/87\/27\/54\/t_1431279466_802633005_1.jpg","price":"$1.400","title":"Vendo 2 camas de una plaza de cedro"},{"latitude":-34.64307,"longitude":-58.52593,"description":"cubiertas usadas y llantas usadas con","id":802636652,"image":"http:\/\/images01.olx-st.com\/ui\/97\/62\/68\/t_1431281423_802636652_1.jpg","price":"$4.000","title":"4 Llantas y 2 cubiertas Ford Focus II"},{"latitude":-34.642784,"longitude":-58.515976,"description":"Jean de nena talle 3 nuevo con detalle en el bolsillo trasero y tapadito blanco de polar con bolsillos, talle 4 en perfecto estado, muy abrigado. Junto o separado, 110 cada uno o 220.","id":802651511,"image":"http:\/\/images04.olx-st.com\/ui\/79\/80\/06\/t_1431289902_802651511_1.jpg","price":"$220","title":"Jean y tapado polar nena"},{"latitude":-34.642494,"longitude":-58.51617,"description":"Cocina casi nueva funcionando","id":802535109,"image":"http:\/\/images04.olx-st.com\/ui\/55\/32\/22\/t_1431214488_802535109_1.jpg","price":"$1.000","title":"Cocina muy buena funcionando, vendo por mudanza"},{"latitude":-34.64248,"longitude":-58.516182,"description":"Pileta de ba\u00f1o muy buena","id":802535250,"image":"http:\/\/images02.olx-st.com\/ui\/59\/40\/81\/t_1431214568_802535250_1.jpg","price":"$1.000","title":"Pileta de ba\u00f1o"},{"latitude":-34.642475,"longitude":-58.516212,"description":"Mesada de acero inoxidable de 1.20mts","id":802535395,"image":"http:\/\/images02.olx-st.com\/ui\/55\/55\/56\/t_1431214645_802535395_1.jpg","price":"$600","title":"Mesada de cocina"},{"latitude":-34.638268,"longitude":-58.512997,"description":"Sapatillas ad\u00edas original talle 43 44 nuevo en caja","id":802852505,"image":"http:\/\/images02.olx-st.com\/ui\/68\/59\/07\/t_1431366281_802852505_1.jpg","price":"","title":"Sapatillas Adidas Original"},{"latitude":-34.63816,"longitude":-58.51334,"description":"Nuevo conjunto Adidas original muy lindo oferta 1.400","id":802849545,"image":"http:\/\/images04.olx-st.com\/ui\/58\/99\/45\/t_1431365497_802849545_1.jpg","price":"","title":"Conjunto Adidas ORIGINAL"},{"latitude":-34.636337,"longitude":-58.528576,"description":"muy buen estado aire gas c tuvo doble de fabrica y demas","id":802619923,"image":"http:\/\/images03.olx-st.com\/ui\/57\/00\/56\/t_1431273027_802619923_1.jpg","price":"$73.500","title":"vendo auto siena 2009"},{"latitude":-34.63417,"longitude":-58.52157,"description":"Showroom lover","id":802613016,"image":"http:\/\/images03.olx-st.com\/ui\/90\/29\/94\/t_1431269511_802613016_1.jpg","price":"$130","title":"Indumentaria femenina"},{"latitude":-34.590984,"longitude":-58.47755,"description":"Conjunto de pollera. Musculosa con puntilla y cazadora Talle 4 Marca CHEEKY EXCELENTE ESTADO detalle de cinto con apliques","id":801289740,"image":"http:\/\/images01.olx-st.com\/ui\/84\/13\/87\/t_1430831245_801289740_1.jpg","price":"$150","title":"Hermoso conjunto cheeky talle 4"},{"latitude":-34.590942,"longitude":-58.477566,"description":"Talle 6\/8 4 buzos y 2 camperas","id":801086767,"image":"http:\/\/images03.olx-st.com\/ui\/68\/45\/28\/t_1430753825_801086767_1.jpg","price":"$50","title":"Lote de 6 buzos"},{"latitude":-34.59094,"longitude":-58.477566,"description":"Talles l y xl","id":801083984,"image":"http:\/\/images04.olx-st.com\/ui\/64\/78\/02\/t_1430753017_801083984_1.jpg","price":"$120","title":"Lote de 19 remeras de dama"},{"latitude":-34.59093,"longitude":-58.47755,"description":"Talle 32 buen estado","id":801070857,"image":"http:\/\/images01.olx-st.com\/ui\/92\/44\/07\/t_1430749217_801070857_1.jpg","price":"$40","title":"Zapatilla botita"},{"latitude":-34.59093,"longitude":-58.477547,"description":"Pollera talle 8 Jumper 6 Capri 4 Jean 6 Mini 6 Mini 6 Mini 12 Short 12","id":801094288,"image":"http:\/\/images03.olx-st.com\/ui\/98\/70\/94\/t_1430755909_801094288_1.jpg","price":"$100","title":"Lote de 8 prendas de jean de nena"},{"latitude":-34.59093,"longitude":-58.477535,"description":"Remera blanca con yabot De broderie Talle 4","id":801294461,"image":"http:\/\/images02.olx-st.com\/ui\/83\/95\/78\/t_1430832865_801294461_1.jpg","price":"$40","title":"Hermosa remera CHEEKY talle 4"},{"latitude":-34.590927,"longitude":-58.477516,"description":"Pantalon naranja floreado con polera y gorro de jean","id":801313641,"image":"http:\/\/images01.olx-st.com\/ui\/67\/20\/91\/t_1430838640_801313641_1.jpg","price":"$100","title":"Conjunto cheeky 2 a\u00f1os"},{"latitude":-34.59092,"longitude":-58.477573,"description":"140x70 75 de altura","id":800969103,"image":"http:\/\/images01.olx-st.com\/ui\/84\/81\/25\/t_1430702418_800969103_1.jpg","price":"$300","title":"Mesa escritorio con patas metalicas"},{"latitude":-34.59092,"longitude":-58.4775,"description":"Botas negras cortas talle 34","id":800958914,"image":"http:\/\/images04.olx-st.com\/ui\/77\/84\/95\/t_1430697441_800958914_1.jpg","price":"$100","title":"Botas talle 34"},{"latitude":-34.59092,"longitude":-58.477497,"description":"Talle 31 buen estado","id":801050533,"image":"http:\/\/images03.olx-st.com\/ui\/72\/09\/83\/t_1430741852_801050533_1.jpg","price":"$50","title":"Botitas de gamuza color coco con detalles en rosa"},{"latitude":-34.590916,"longitude":-58.4775,"description":"Talle 6 color rosa super abrigadito","id":801540907,"image":"http:\/\/images01.olx-st.com\/ui\/72\/18\/75\/t_1430915661_801540907_1.jpg","price":"$70","title":"Hermoso camperon de abrigo"},{"latitude":-34.590916,"longitude":-58.477474,"description":"Talles 16\/17\/18","id":801074697,"image":"http:\/\/images01.olx-st.com\/ui\/91\/62\/23\/t_1430750390_801074697_1.jpg","price":"$60","title":"Lote de 4 pares de calzado para bebes"},{"latitude":-34.59091,"longitude":-58.477566,"description":"Talle 4 color rosa impecable","id":801540457,"image":"http:\/\/images03.olx-st.com\/ui\/78\/87\/55\/t_1430915445_801540457_1.jpg","price":"$70","title":"Hermoso blaizer de corderoy"},{"latitude":-34.590908,"longitude":-58.47753,"description":"Talle 4 impecable Bordada Super abrigada","id":801548162,"image":"http:\/\/images04.olx-st.com\/ui\/51\/03\/38\/t_1430918579_801548162_1.jpg","price":"$300","title":"Campera importada eurodisney"},{"latitude":-34.590904,"longitude":-58.477448,"description":"Ni\u00f1os talles 4\/6\/8","id":802673790,"image":"http:\/\/images04.olx-st.com\/ui\/84\/92\/16\/t_1431302509_802673790_1.jpg","price":"$50","title":"Lote de buzos y camperas"},{"latitude":-34.5909,"longitude":-58.477486,"description":"Buen estado","id":800965408,"image":"http:\/\/images02.olx-st.com\/ui\/53\/68\/54\/t_1430700601_800965408_1.jpg","price":"$40","title":"Botas de lona talle 32"},{"latitude":-34.590897,"longitude":-58.4775,"description":"Zapatillas talle 34 Se retira por villa urquiza","id":800964724,"image":"http:\/\/images02.olx-st.com\/ui\/93\/27\/11\/t_1430700286_800964724_1.jpg","price":"$30","title":"Zapatillas talle 34"},{"latitude":-34.590897,"longitude":-58.477455,"description":"Hermosa camisa blanca con detalle de flores bordadas en hilo de seda Gran lazo en la espalda con faldon","id":801306179,"image":"http:\/\/images01.olx-st.com\/ui\/55\/76\/40\/t_1430836502_801306179_1.jpg","price":"$40","title":"Camisa cheeky talle 6"},{"latitude":-34.590893,"longitude":-58.477425,"description":"Talle 31 buen estado","id":801049496,"image":"http:\/\/images02.olx-st.com\/ui\/74\/49\/24\/t_1430741365_801049496_1.jpg","price":"$40","title":"Zapatillas botitas blancas con lenyejuelas"},{"latitude":-34.59089,"longitude":-58.47751,"description":"Oferton 4 prendas a solo 80 $ talles 12 y 14","id":800872839,"image":"http:\/\/images01.olx-st.com\/ui\/96\/85\/18\/t_1430656848_800872839_1.jpg","price":"$80","title":"Lote de dos chalecos de violeta y dos buzos de polar"},{"latitude":-34.59088,"longitude":-58.477493,"description":"Talle 4\/6 para nenas","id":801108884,"image":"http:\/\/images04.olx-st.com\/ui\/90\/83\/74\/t_1430759907_801108884_1.jpg","price":"$200","title":"Lote de 27 prendas para nenas"},{"latitude":-34.590874,"longitude":-58.477497,"description":"Talle 8\/10","id":801090490,"image":"http:\/\/images02.olx-st.com\/ui\/98\/52\/55\/t_1430754834_801090490_1.jpg","price":"$50","title":"Lote de 5 chalecos tejidos a mano"},{"latitude":-34.590866,"longitude":-58.47753,"description":"Talle 4 color rosa","id":801545738,"image":"http:\/\/images03.olx-st.com\/ui\/60\/40\/92\/t_1430917693_801545738_1.jpg","price":"$40","title":"Camperita de lana tejida a mano"},{"latitude":-34.590866,"longitude":-58.477497,"description":"Buen estado","id":800968516,"image":"http:\/\/images04.olx-st.com\/ui\/91\/43\/70\/t_1430702130_800968516_1.jpg","price":"$40","title":"Botas de lona roja talle 32"},{"latitude":-34.59085,"longitude":-58.477425,"description":"Talle6\/8 son 4 prendas","id":801767210,"image":"http:\/\/images02.olx-st.com\/ui\/60\/44\/58\/t_1431020480_801767210_1.jpg","price":"$80","title":"Lote de buzos y chalecos de polar"},{"latitude":-34.590847,"longitude":-58.477436,"description":"Campera de modal negra con cierre fluo","id":799133009,"image":"http:\/\/images04.olx-st.com\/ui\/64\/26\/67\/t_1429924503_799133009_1.jpg","price":"$50","title":"Campera de modal talle12"},{"latitude":-34.590847,"longitude":-58.477367,"description":"Talle 33 Esclabas negras Chatitas doradas con gliter","id":801814455,"image":"http:\/\/images04.olx-st.com\/ui\/78\/96\/08\/t_1431034005_801814455_1.jpg","price":"$70","title":"Lote de calzado para nenas"},{"latitude":-34.590843,"longitude":-58.477505,"description":"Talle 31 buen estado","id":801068972,"image":"http:\/\/images02.olx-st.com\/ui\/67\/38\/47\/t_1430748654_801068972_1.jpg","price":"$50","title":"Botita de gamuza color coco"},{"latitude":-34.590843,"longitude":-58.47747,"description":"1 mono de jean 3 pantalones 2 pantalones 47st 2polleras 1blaizer negro 1 vestido etam 1 campera 1buzo 1remera manga larga 1sweter de lana 2sweter de hilo Todo por 150","id":801774663,"image":"http:\/\/images01.olx-st.com\/ui\/78\/24\/71\/t_1431022029_801774663_1.jpg","price":"$150","title":"Lote de 16 prendas de mujer"},{"latitude":-34.59084,"longitude":-58.477455,"description":"Talles 6\/8 sin uso","id":802843971,"image":"http:\/\/images02.olx-st.com\/ui\/89\/79\/00\/t_1431363987_802843971_1.jpg","price":"$200","title":"Lote de 13 prendas nuevas"},{"latitude":-34.59084,"longitude":-58.47743,"description":"Talles 17\/18\/19","id":801765990,"image":"http:\/\/images04.olx-st.com\/ui\/64\/57\/60\/t_1431020165_801765990_1.jpg","price":"$60","title":"Lote calzado bebe"},{"latitude":-34.590828,"longitude":-58.477448,"description":"Talle 10 super abrigada","id":801541508,"image":"http:\/\/images04.olx-st.com\/ui\/89\/57\/35\/t_1430915916_801541508_1.jpg","price":"$70","title":"Campera de abrigo verde militar"},{"latitude":-34.5908,"longitude":-58.47737,"description":"Talles 16\/17\/18","id":801395461,"image":"http:\/\/images04.olx-st.com\/ui\/57\/06\/13\/t_1430863866_801395461_1.jpg","price":"$60","title":"Lote de calzado para bebe"},{"latitude":-34.590794,"longitude":-58.477432,"description":"Talles 33\/34\/35","id":801155638,"image":"http:\/\/images03.olx-st.com\/ui\/64\/17\/99\/t_1430774589_801155638_1.jpg","price":"$100","title":"Lote de 7 pares de calzado para ni\u00f1os"},{"latitude":-34.590687,"longitude":-58.47745,"description":"Talles 4\/6\/8 1 campera de jean 1 camisa de jean 3 pantalones de jean 4 bombachas de campo","id":801098606,"image":"http:\/\/images03.olx-st.com\/ui\/81\/05\/61\/t_1430757076_801098606_1.jpg","price":"$120","title":"Lote de 9 prendas para nene"},{"latitude":-34.58313,"longitude":-58.48059,"description":"Bitas rolling numero 37 placha italiana varient ruedas rolline gioto casi nuevos con pocos meses de uso","id":797679891,"image":"http:\/\/images02.olx-st.com\/ui\/93\/73\/26\/t_1429369182_797679891_1.jpg","price":"$5.000","title":"Patines artisticos profecionales"},{"latitude":-34.582966,"longitude":-58.477863,"description":"es lo mas piol","id":802512489,"image":"http:\/\/images03.olx-st.com\/ui\/58\/31\/22\/t_1431202735_802512489_1.jpg","price":"$5.000","title":"cama boxeadora"},{"latitude":-34.58216,"longitude":-58.480812,"description":"Huawei Y210 para Personal muy poco uso estado implecable","id":796737924,"image":"http:\/\/images04.olx-st.com\/ui\/67\/36\/11\/t_1429030259_796737924_1.jpg","price":"$1.100","title":"huawei ascend Y210"},{"latitude":-34.582153,"longitude":-58.480766,"description":"color roja con 1700km a\u00f1o 2014 estado bueno le falta la cacha del lado derecho me cai y se rompio","id":796717823,"image":"http:\/\/images04.olx-st.com\/ui\/77\/89\/18\/t_1429024252_796717823_1.jpg","price":"$11.000","title":"brava electra 150"},{"latitude":-34.559624,"longitude":-58.444767,"description":"Vendo Vairo xr 5.0 freno a disco equipada shimano altus 21 velocidades cuadro aluminio talle 20 ...1153889850","id":802814338,"image":"http:\/\/images04.olx-st.com\/ui\/82\/43\/20\/t_1431355948_802814338_1.jpg","price":"$5.800","title":"Vairo 5.0 freno a disco"},{"latitude":-34.5547,"longitude":-58.455196,"description":"Nuevo de marca primera calidad","id":802805645,"image":"http:\/\/images02.olx-st.com\/ui\/91\/74\/68\/t_1431353455_802805645_1.jpg","price":"$550","title":"Tapados para damas"},{"latitude":-34.55459,"longitude":-58.45534,"description":"Nuevo 3 uso primera calidad","id":802821526,"image":"http:\/\/images03.olx-st.com\/ui\/79\/07\/38\/t_1431357911_802821526_1.jpg","price":"$550","title":"Rolet en linia"},{"latitude":-34.55433,"longitude":-58.44598,"description":"Otro test de alaban","id":802857638,"image":"http:\/\/images02.olx-st.com\/ui\/53\/31\/32\/t_1431367731_802857638_1.jpg","price":"$123","title":"Test Alan mm"}]