[{"latitude":-34.624695,"longitude":-58.451614,"description":"Oportunidad!!! Los buffers andan perfectamente y suenan fuerte\uff0c en cuanto al aparato solo anda la radio. La casettera y el toca discos quiza pueda tener arreglo.","id":802670287,"image":"http:\/\/images02.olx-st.com\/ui\/65\/65\/07\/t_1431300496_802670287_1.jpg","price":"$1.500","title":"Tocador antiguo y buffers"},{"latitude":-34.615833,"longitude":-58.447872,"description":"Se vende zapatos con plataforma nuevos numero 38","id":802674974,"image":"http:\/\/images03.olx-st.com\/ui\/88\/61\/92\/t_1431303184_802674974_1.jpg","price":"$1.250","title":"Se Vende Zapatos Forever 21 Miami"},{"latitude":-34.614677,"longitude":-58.40129,"description":"-23 juegos de play station 2. -Memory card de 8gb -Grand theft auto liberty city para pc","id":802624277,"image":"http:\/\/images01.olx-st.com\/ui\/60\/71\/44\/t_1431275132_802624277_1.jpg","price":"$300","title":"23 Juegos de ps2grand theft auto liberty citymemory card"},{"latitude":-34.614662,"longitude":-58.401367,"description":"Vendo libro de historia Argentina entre los siglos XIX y XXI de la editorial puerto de palos coleccion logonautas. Incluye carpeta de actividades","id":802626403,"image":"http:\/\/images01.olx-st.com\/ui\/61\/23\/79\/t_1431276160_802626403_1.jpg","price":"$80","title":"Libro de historia Argentina logonautas entre los siglos XIX y XXI Puerto de palos"},{"latitude":-34.614468,"longitude":-58.392284,"description":"2 pesos cada uno","id":802639042,"image":"http:\/\/images04.olx-st.com\/ui\/93\/03\/14\/t_1431282727_802639042_1.jpg","price":"","title":"Envase de cerveza"},{"latitude":-34.61428,"longitude":-58.40926,"description":"Vendo varios frascos de perfumes vac\u00edos. Tal como se ve en las fotos, algunos con su caja.","id":802780667,"image":"http:\/\/images04.olx-st.com\/ui\/84\/26\/21\/t_1431343002_802780667_1.jpg","price":"$400","title":"Frascos vacios de perfume"},{"latitude":-34.611595,"longitude":-58.40353,"description":"Libre de f\u00e1brica - impecable - poco uso - jailbreak opcional","id":802771383,"image":"http:\/\/images01.olx-st.com\/ui\/58\/80\/17\/t_1431336250_802771383_1.jpg","price":"$8.000","title":"Libre! iPhone 5S 32GB Space Gray"},{"latitude":-34.61159,"longitude":-58.403538,"description":"Soporta Micro SD - Rooteado - Libre de f\u00e1brica - Impecable - Cargador + USB","id":802772118,"image":"http:\/\/images01.olx-st.com\/ui\/55\/43\/27\/t_1431336800_802772118_1.jpg","price":"$3.250","title":"Moto G LTE 4G XT1040 Memoria Expansible Libre Rooteado"},{"latitude":-34.61158,"longitude":-58.403553,"description":"Rooteado - LTE (4G) - Impecable","id":802773687,"image":"http:\/\/images03.olx-st.com\/ui\/70\/04\/66\/t_1431338034_802773687_1.jpg","price":"$7.500","title":"Moto X 2014 Segunda Generaci\u00f3n Libre Lollipop 5.1"},{"latitude":-34.611168,"longitude":-58.396236,"description":"Roble americano con vidrio bicelado. Medidas 80 x 260.","id":802816932,"image":"http:\/\/images02.olx-st.com\/ui\/57\/22\/85\/t_1431356662_802816932_1.jpg","price":"$3.500","title":"Puerta de madera de roble"},{"latitude":-34.60892,"longitude":-58.39636,"description":"Liberado Memoria Ram 8Gb Memoria interna de almacenamiento 8Gb Doble ranura sim Sistema Operativo (SO) Kitkat 4.4.2 Incluye: Memoria externa MicroSD de 32Gb Cargador Caja","id":802855216,"image":"http:\/\/images01.olx-st.com\/ui\/76\/06\/08\/t_1431367043_802855216_1.jpg","price":"$3.500","title":"Vendo Samsung Galaxy S4 Mini GT I9192"},{"latitude":-34.608788,"longitude":-58.40006,"description":"Muy buena calidad mucha potencia de sonido bater\u00eda incorporada duraci\u00f3n aprox. 2 Hras a 3 Hras. Con cargaron USB incluidos","id":802651506,"image":"http:\/\/images01.olx-st.com\/ui\/88\/83\/19\/t_1431289898_802651506_1.jpg","price":"$300","title":"PARLANTE MP3 conexi\u00f3n Bluetooth con radio fm y luces a los costados varios colores"},{"latitude":-34.57279,"longitude":-58.43858,"description":"Hacemos instalaciones de aires, estufas, reparaciones de instalaciones de sanitarios y gas","id":802792295,"image":"http:\/\/images01.olx-st.com\/ui\/79\/51\/96\/t_1431348870_802792295_1.jpg","price":"","title":"Reparaciones a domicilio"},{"latitude":-34.568245,"longitude":-58.443233,"description":"Vendo iPhone 5s, 16 gb Esta impecable, fue usado solamente duramente tres meses. Viene con caja y accesorios, todo nuevos sin uso y completo Y una carcaza a elecci\u00f3n","id":802681888,"image":"http:\/\/images01.olx-st.com\/ui\/57\/12\/93\/t_1431307023_802681888_1.jpg","price":"$8.500","title":"Vendo iPhone 5s Nuevo, Con Solo Tres Meses De Uso"}]