[{"latitude":-34.596817,"longitude":-58.41584,"description":"Servicio de motomensajeria de 20 a 24hs","id":802850148,"image":"http:\/\/images02.olx-st.com\/ui\/77\/38\/99\/t_1431365653_802850148_1.jpg","price":"","title":"Moto mensajer\u00eda de 20 a 24hs"},{"latitude":-34.596214,"longitude":-58.42269,"description":"Original nueva etiqueta s bolsa empaque adidas","id":802695702,"image":"http:\/\/images03.olx-st.com\/ui\/85\/23\/72\/t_1431314992_802695702_1.jpg","price":"$470","title":"Camiseta adidas mangas largas argentina talle l nueva"},{"latitude":-34.591156,"longitude":-58.41143,"description":"Color black & pink talle 41, usadas en excelente estado, las suelas en excelente estado y la gamuza lo mismo.","id":802853378,"image":"http:\/\/images02.olx-st.com\/ui\/86\/07\/58\/t_1431366527_802853378_1.jpg","price":"$500","title":"Vendo Zapatillas Nike sb Stefan Janoski"},{"latitude":-34.59111,"longitude":-58.411385,"description":"Producto 100% original.","id":802838331,"image":"http:\/\/images02.olx-st.com\/ui\/85\/51\/71\/t_1431362493_802838331_1.jpg","price":"$500","title":"Vendo televisor Noblex de 32 Pulgadas usada, en excelente estado."},{"latitude":-34.58356,"longitude":-58.40175,"description":"Divan cama de 1 plaza, excelente estado","id":802857898,"image":"http:\/\/images02.olx-st.com\/ui\/62\/46\/01\/t_1431367806_802857898_1.jpg","price":"$2.600","title":"Divan cama seminuevo"},{"latitude":-34.58178,"longitude":-58.40456,"description":"Est\u00e1 impecable!!!","id":802687526,"image":"http:\/\/images04.olx-st.com\/ui\/82\/81\/43\/t_1431310147_802687526_1.jpg","price":"$130","title":"Gatito que ma\u00falla y camina"},{"latitude":-34.578403,"longitude":-58.40632,"description":"- L\u00e1mina de la famosa foto de Charlie Ebbets \"Lunch atop a Skyscraper\" (Almuerzo en lo alto de un rascacielos). Foto de 11 alba\u00f1iles durante la construcci\u00f3n del Rockefeller Center en New York - Estilo Pop Art, ideal para centro de living o habitaci\u00f3n - Comprado en el Museo... (pondria esto si es rel","id":802690560,"image":"http:\/\/images02.olx-st.com\/ui\/99\/69\/33\/t_1431311953_802690560_1.jpg","price":"$900","title":"Cuadro L\u00e1mina Obreros Trabajando En New York Enmarcado"},{"latitude":-34.578194,"longitude":-58.405514,"description":"Vendo Urgente x Viaje","id":802825683,"image":"http:\/\/images03.olx-st.com\/ui\/64\/75\/36\/t_1431359036_802825683_1.jpg","price":"$115.000","title":"Peugeot 207"}]