[{"latitude":-34.61939,"longitude":-58.38455,"description":"Nueva 3 meses de uso. Con casco LS2 y cadena de seguridad","id":802626207,"image":"http:\/\/images01.olx-st.com\/ui\/63\/06\/55\/t_1431276055_802626207_1.jpg","price":"$17.000","title":"Rouser 135"},{"latitude":-34.617622,"longitude":-58.389217,"description":"Coche de duck, grande, el asiento tiene tres posisiones, se adapta a cualquier tipo de suelo. Usado Butaca para auto de Rainbow, usada Digan los precios que les parezca, desde $350","id":802500847,"image":"http:\/\/images03.olx-st.com\/ui\/86\/07\/49\/t_1431197112_802500847_1.jpg","price":"$300","title":"Cochesito y butaca para auto subastaq"},{"latitude":-34.61718,"longitude":-58.390972,"description":"Mois\u00e9s nuevo s\u00ed uso impecable con su bolsa colch\u00f3nsito todos nuevo sin uso lo vendo xq necesito la plata contacto 1153491977 manden wasthsap","id":802350667,"image":"http:\/\/images02.olx-st.com\/ui\/64\/43\/99\/t_1431136002_802350667_1.jpg","price":"$450","title":"Vendo Un Hermosos Mois\u00e9s Nuevo"},{"latitude":-34.61711,"longitude":-58.38891,"description":"Son importadas de la marca cuadra!! Talle 40","id":802677838,"image":"http:\/\/images04.olx-st.com\/ui\/95\/55\/76\/t_1431304763_802677838_1.jpg","price":"$1.000","title":"Botas texanas originales"},{"latitude":-34.616737,"longitude":-58.39209,"description":"Campera de cuero etiqueta negra chaqueta imperdible","id":802809961,"image":"http:\/\/images03.olx-st.com\/ui\/72\/56\/72\/t_1431354704_802809961_1.jpg","price":"$1.000","title":"Campera de cuero hombre nueva"},{"latitude":-34.61654,"longitude":-58.389694,"description":"Nike originalea","id":802478644,"image":"http:\/\/images03.olx-st.com\/ui\/80\/06\/03\/t_1431188085_802478644_1.jpg","price":"$800","title":"Zapatillas nike"},{"latitude":-34.616245,"longitude":-58.387615,"description":"Estoy vendiendo a muy buen precio porque es urgente .no tengo lugar para tenerlo. .","id":802447703,"image":"http:\/\/images04.olx-st.com\/ui\/75\/49\/13\/t_1431174857_802447703_1.jpg","price":"$1.500","title":"1ayudante de 5cajones un espejo mediano1elicoptero de pedicuria 1sillon de corte etc"},{"latitude":-34.614025,"longitude":-58.383236,"description":"Fuentes funcionando y en perfecto estado. Se retira por zona Monserrat","id":802520282,"image":"http:\/\/images03.olx-st.com\/ui\/87\/73\/90\/t_1431206597_802520282_1.jpg","price":"$240","title":"Fuentes Originales para Impresoras Hp gris violeta o verde"},{"latitude":-34.609562,"longitude":-58.38498,"description":"Ocasi\u00f3n reci\u00e9n llegado Xperia Sony Zs","id":802549247,"image":"http:\/\/images03.olx-st.com\/ui\/74\/14\/07\/t_1431224150_802549247_1.jpg","price":"$8.250","title":"Xperia Z2 Nuevo de paquete"},{"latitude":-34.608974,"longitude":-58.380142,"description":"Busco monohambiente en congreso x due\u00f1o amoblado","id":802212632,"image":"","price":"$4.000","title":"Monohanbiente para alquilar"},{"latitude":-34.596817,"longitude":-58.41584,"description":"Servicio de motomensajeria de 20 a 24hs","id":802850148,"image":"http:\/\/images02.olx-st.com\/ui\/77\/38\/99\/t_1431365653_802850148_1.jpg","price":"","title":"Moto mensajer\u00eda de 20 a 24hs"},{"latitude":-34.596214,"longitude":-58.42269,"description":"Original nueva etiqueta s bolsa empaque adidas","id":802695702,"image":"http:\/\/images03.olx-st.com\/ui\/85\/23\/72\/t_1431314992_802695702_1.jpg","price":"$470","title":"Camiseta adidas mangas largas argentina talle l nueva"},{"latitude":-34.591156,"longitude":-58.41143,"description":"Color black & pink talle 41, usadas en excelente estado, las suelas en excelente estado y la gamuza lo mismo.","id":802853378,"image":"http:\/\/images02.olx-st.com\/ui\/86\/07\/58\/t_1431366527_802853378_1.jpg","price":"$500","title":"Vendo Zapatillas Nike sb Stefan Janoski"},{"latitude":-34.59111,"longitude":-58.411385,"description":"Producto 100% original.","id":802838331,"image":"http:\/\/images02.olx-st.com\/ui\/85\/51\/71\/t_1431362493_802838331_1.jpg","price":"$500","title":"Vendo televisor Noblex de 32 Pulgadas usada, en excelente estado."},{"latitude":-34.559624,"longitude":-58.444767,"description":"Vendo Vairo xr 5.0 freno a disco equipada shimano altus 21 velocidades cuadro aluminio talle 20 ...1153889850","id":802814338,"image":"http:\/\/images04.olx-st.com\/ui\/82\/43\/20\/t_1431355948_802814338_1.jpg","price":"$5.800","title":"Vairo 5.0 freno a disco"},{"latitude":-34.5547,"longitude":-58.455196,"description":"Nuevo de marca primera calidad","id":802805645,"image":"http:\/\/images02.olx-st.com\/ui\/91\/74\/68\/t_1431353455_802805645_1.jpg","price":"$550","title":"Tapados para damas"},{"latitude":-34.55459,"longitude":-58.45534,"description":"Nuevo 3 uso primera calidad","id":802821526,"image":"http:\/\/images03.olx-st.com\/ui\/79\/07\/38\/t_1431357911_802821526_1.jpg","price":"$550","title":"Rolet en linia"},{"latitude":-34.55433,"longitude":-58.44598,"description":"Otro test de alaban","id":802857638,"image":"http:\/\/images02.olx-st.com\/ui\/53\/31\/32\/t_1431367731_802857638_1.jpg","price":"$123","title":"Test Alan mm"}]