[{"latitude":-34.562756,"longitude":-58.443604,"description":"Impecable muy cuidado Sin rayitas siempre en protector!! Para cualquier compa\u00f1ia NO PERMUTO","id":803113822,"image":"http:\/\/images03.olx-st.com\/ui\/90\/18\/70\/t_1431464446_803113822_1.jpg","price":"$5.200","title":"Iphone 4S 64 GB Liberado De Apple"},{"latitude":-34.562546,"longitude":-58.44882,"description":"Vendo iPhone 4 con sus accesorios En excelente estado, anda muy bien.","id":803141220,"image":"http:\/\/images04.olx-st.com\/ui\/75\/58\/43\/t_1431474234_803141220_1.jpg","price":"$4.000","title":"Vendo iPhone 4"},{"latitude":-34.559673,"longitude":-58.454334,"description":"Ambas cosas est\u00e1n sin uso","id":803150269,"image":"http:\/\/images04.olx-st.com\/ui\/91\/29\/04\/t_1431478045_803150269_1.jpg","price":"$2.000","title":"Cuatro tasas 13 nuevas Renault Clio y cricket tijera original Renault"},{"latitude":-34.551857,"longitude":-58.44352,"description":"Viene con 2 controles y sus respectivos nunchuks y variedad de juegos","id":803132647,"image":"http:\/\/images04.olx-st.com\/ui\/70\/46\/19\/t_1431470946_803132647_1.jpg","price":"$1.200","title":"Wii usada chipeada, excelente estado!"},{"latitude":-34.45551,"longitude":-58.550568,"description":"Esta en buen estado se vende con o sin huevito","id":803024411,"image":"http:\/\/images04.olx-st.com\/ui\/62\/70\/90\/t_1431436494_803024411_1.jpg","price":"$900","title":"Vendo coche"},{"latitude":-34.453896,"longitude":-58.55312,"description":"Patineta de dos ruedas marca robix con estuche sin uso casi nueva","id":802943758,"image":"http:\/\/images03.olx-st.com\/ui\/90\/50\/38\/t_1431401011_802943758_1.jpg","price":"$240","title":"Patineta De Dos Ruedas Robix"},{"latitude":-34.45141,"longitude":-58.553112,"description":"2 Pirelli P 7 ideal remise o auxilio","id":802846065,"image":"http:\/\/images04.olx-st.com\/ui\/87\/09\/09\/t_1431364557_802846065_1.jpg","price":"$300","title":"2 Cubiertas d ocasion p\/ Bora o 307"},{"latitude":-34.4514,"longitude":-58.55311,"description":"Juego d pulsadores para pista d autos AFX con transformador inclu\u00eddos; funciona todo y estado impecable...\u00fanicos !!!","id":802846912,"image":"http:\/\/images02.olx-st.com\/ui\/70\/52\/77\/t_1431364787_802846912_1.jpg","price":"$300","title":"AFX Juego de pulsadores originales"},{"latitude":-34.44975,"longitude":-58.545162,"description":"Cuero, negras con tachas. casi sin uso. N*40","id":803177550,"image":"http:\/\/images03.olx-st.com\/ui\/74\/87\/25\/t_1431490192_803177550_1.jpg","price":"$350","title":"Bota de cuero con tachas casi nuevas"},{"latitude":-34.449726,"longitude":-58.54512,"description":"Oro rosa y blanco con stras. Pila de repuesto. Nuevo en caja.","id":803175883,"image":"http:\/\/images02.olx-st.com\/ui\/100\/31\/64\/t_1431489721_803175883_1.jpg","price":"$450","title":"Reloj de pulsera mujer MICHEL KORS importado de USA"}]