[{"latitude":-34.63457,"longitude":-58.756596,"description":"Tiene gnc. Motor 250 andando. Cedula y cedula del gas O permuto. Por moto","id":803291858,"image":"http:\/\/images04.olx-st.com\/ui\/88\/31\/51\/t_1431516515_803291858_1.jpg","price":"$9.000","title":"Chevi 4 puertas"},{"latitude":-34.605537,"longitude":-58.94543,"description":"Como nueva poco uso anda todo.. con bateria y cargador!","id":802460424,"image":"http:\/\/images01.olx-st.com\/ui\/73\/67\/19\/t_1431181123_802460424_1.jpg","price":"$3.500","title":"Notebook bgh positivo"},{"latitude":-34.60448,"longitude":-58.950546,"description":"Zapatillas Asics Gel-fujiattack 3 Violeta sin uso . Talle : US: 11 EURO: 43.5 CM: 27.5","id":802345054,"image":"http:\/\/images02.olx-st.com\/ui\/50\/61\/63\/t_1431132911_802345054_1.jpg","price":"$1.250","title":"Zapatillas Asics Gelfujiattack 3 Violeta"},{"latitude":-34.60419,"longitude":-58.94829,"description":"Zapatos NUEVOS de gamuza color negro con plataforma, bien altos. Son talle 38 y no tienen uso! Cualquier consulta preguntar no tengo problema, estan muy lindos! Los vendo porque yo no los voy a usar","id":802861471,"image":"http:\/\/images02.olx-st.com\/ui\/63\/56\/92\/t_1431368899_802861471_1.jpg","price":"$450","title":"Zapatos de gamuza negros con plataforma"},{"latitude":-34.59379,"longitude":-58.40481,"description":"32 Gb - 4 meses de uso","id":802917116,"image":"","price":"$6.500","title":"Tablet sony z1"},{"latitude":-34.591396,"longitude":-58.401688,"description":"Cama rebatible con amortiguadores en muy buen Estado mda 203x150x44","id":803079138,"image":"http:\/\/images03.olx-st.com\/ui\/59\/28\/02\/t_1431452547_803079138_1.jpg","price":"$4.000","title":"VENDO CAMA REBATIBLE"},{"latitude":-34.591373,"longitude":-58.40753,"description":"No tiene ningun detalle, quiero comrparme el 5s por eso lo vendo. La caja no la tengo porque lo traje de afuera, para evitar problemas de aduana. el telefono tiene 5 meses de uso. el telefono tiene un protector de la pantalla.","id":803114485,"image":"http:\/\/images01.olx-st.com\/ui\/63\/56\/50\/t_1431464673_803114485_1.jpg","price":"$5.500","title":"Iphone 5 16 gb LIBERADO DE FABRICA Muy buen estado!"},{"latitude":-34.590668,"longitude":-58.40917,"description":"Ps3 80gb perfecto estado, dos joystick, 3 juegos f\u00edsicos, fifa 15 digital, cable Hdmi, Caja","id":803039401,"image":"http:\/\/images02.olx-st.com\/ui\/68\/69\/25\/t_1431441297_803039401_1.jpg","price":"$3.500","title":"Ps3 dos joystick fifa 15 y 3 juegos"},{"latitude":-34.59018,"longitude":-58.399506,"description":"Modelo y Caracter\u00edsticas F\u00edsicas Apple iPhone 4S 32GB Marca Apple Modelo iPhone 4S 32GB Tambi\u00e9n conocido como Apple iPhone 4S Disponibilidad octubre, 2011 Tipo \/ Dise\u00f1o Cl\u00e1sico \/ Bar Espesor 9,3 mil\u00edmetros Dimensiones (anchura x altura) 58,6 x 115,2 mil\u00edmetros Peso 140 gramos Teclado Qwerty f\u00edsico N","id":802919921,"image":"http:\/\/images04.olx-st.com\/ui\/93\/27\/85\/t_1431390516_802919921_1.jpg","price":"$4.200","title":"Iphone 4s 32gb"},{"latitude":-34.588955,"longitude":-58.407276,"description":"Amplia cartera Blaque. Cuero rojo con tachas Pocos meses de uso. Con correa para usar como bolso","id":802929924,"image":"http:\/\/images04.olx-st.com\/ui\/59\/55\/05\/t_1431394616_802929924_1.jpg","price":"$500","title":"Cartera bolso BLAQUE"},{"latitude":-34.58688,"longitude":-58.399895,"description":"Cochera amplia en estacionamiento privado en 2do piso, 4 rampas d lunes a viernes de 12 del mediodia hasta las 12 de la noche, a dos cuadras de pueyrredon y las heras","id":803099351,"image":"http:\/\/images01.olx-st.com\/ui\/57\/61\/42\/t_1431459474_803099351_1.jpg","price":"$999","title":"Alquiler cochera en 2do piso Pueyrredon y Las Heras, Recoleta"},{"latitude":-34.58498,"longitude":-58.404575,"description":"Licuadora Liliana licuafresh con filtro para pulpa y molinillo de caf\u00e9 y granos. 600W","id":803153509,"image":"http:\/\/images04.olx-st.com\/ui\/62\/31\/59\/t_1431479501_803153509_1.jpg","price":"$280","title":"Licuadora Liliana licuafresh"},{"latitude":-34.583855,"longitude":-58.405178,"description":"Bebe f\u00fatbol de 9 a 12 meses tra\u00eddas de EEUU nuevas . Oferta \u00fanica","id":803172711,"image":"http:\/\/images02.olx-st.com\/ui\/100\/52\/09\/t_1431488137_803172711_1.jpg","price":"$120","title":"Vendo Zapatillas No Caminantes. Nuevas Bebe F\u00fatbol"},{"latitude":-34.582184,"longitude":-58.424774,"description":"Vasos de vidrio irrompibles","id":803193585,"image":"http:\/\/images04.olx-st.com\/ui\/71\/21\/41\/t_1431492363_803193585_1.jpg","price":"$60","title":"Vasos de vidrio"},{"latitude":-34.576458,"longitude":-58.43031,"description":"Con su teclado y mouse respectivo","id":803128637,"image":"http:\/\/images01.olx-st.com\/ui\/87\/00\/99\/t_1431469445_803128637_1.jpg","price":"$6.000","title":"Lenovo All In One"},{"latitude":-34.57477,"longitude":-58.453373,"description":"Excelente estado. Por cierre del negocio.","id":802684552,"image":"http:\/\/images04.olx-st.com\/ui\/94\/98\/29\/t_1431308473_802684552_1.jpg","price":"$1.000","title":"Vendo balanza comercial"},{"latitude":-34.568554,"longitude":-58.4503,"description":"Silla ergon\u00f3mica para oficina o estudio. En perfecto estado. Vendo por motivo viaje","id":802505892,"image":"http:\/\/images04.olx-st.com\/ui\/60\/64\/17\/t_1431199487_802505892_1.jpg","price":"$900","title":"Sill\u00f3n Ejecutivo"},{"latitude":-34.568233,"longitude":-58.44326,"description":"Vendo iPhone 5s de 16 gb, con solo tres meses de uso. Impecable Se entrega con caja y todos los accesorios, los cuales est\u00e1n nuevo! Ya que nunca se usaron. El tel\u00e9fono se encuentra liberado desde fabrica para utilizar con cualquier compa\u00f1\u00eda telef\u00f3nica De regalo: una carcaza a elecci\u00f3n","id":803057733,"image":"http:\/\/images01.olx-st.com\/ui\/78\/13\/45\/t_1431446443_803057733_1.jpg","price":"$8.500","title":"iPhone 5s 16gb"},{"latitude":-34.560383,"longitude":-58.460873,"description":"impecable con todos sus accesorios","id":803149331,"image":"http:\/\/images02.olx-st.com\/ui\/99\/41\/13\/t_1431477648_803149331_1.jpg","price":"$5.900","title":"Sony Z1 para Personal 64 Gb En Caja"},{"latitude":-34.559673,"longitude":-58.454334,"description":"Ambas cosas est\u00e1n sin uso","id":803150269,"image":"http:\/\/images04.olx-st.com\/ui\/91\/29\/04\/t_1431478045_803150269_1.jpg","price":"$2.000","title":"Cuatro tasas 13 nuevas Renault Clio y cricket tijera original Renault"},{"latitude":-34.511208,"longitude":-58.5424,"description":"SOLO 1 USO ! Aun con la mayoria de su film protector. Cinta Magn\u00e9tica Randers para trotar o caminar. Plegable. Se para para ahorrar espacio. Con computadora Lcd amplia cinta magn\u00e9tica de uso residencial. modelo arg \u2013 050 Hp caracter\u00edsticas Principales: banda de movimientos de 120 cm de largo x 36 cm","id":803305824,"image":"http:\/\/images04.olx-st.com\/ui\/91\/07\/19\/t_1431522933_803305824_1.jpg","price":"$3.300","title":"Cinta Caminadora RANDERS 050HP"},{"latitude":-34.50984,"longitude":-58.536972,"description":"Titular todo al dia..","id":803137139,"image":"http:\/\/images01.olx-st.com\/ui\/60\/13\/84\/t_1431472657_803137139_1.jpg","price":"$45.000","title":"Ybr 250 '09"},{"latitude":-34.509827,"longitude":-58.53699,"description":"Gola Impecables.. UK9 - USA10 - EURO 43","id":803136316,"image":"http:\/\/images03.olx-st.com\/ui\/94\/68\/59\/t_1431472338_803136316_1.jpg","price":"$850","title":"* * Gola * *"},{"latitude":-34.498035,"longitude":-58.5798,"description":"La moto est\u00e1 impecable","id":803094851,"image":"http:\/\/images04.olx-st.com\/ui\/53\/81\/27\/t_1431457781_803094851_1.jpg","price":"$3.500","title":"ciclomotor zanella"}]